[{"name":"Tokyo","country":"JPN","lat":35.687,"lon":139.7495,"pop":35676000,"capital":true},{"name":"Mexico City","country":"MEX","lat":19.4444,"lon":-99.1329,"pop":19028000,"capital":true},{"name":"Dhaka","country":"BGD","lat":23.725,"lon":90.4066,"pop":12797394,"capital":true},{"name":"Buenos Aires","country":"ARG","lat":-34.6107,"lon":-58.4325,"pop":12795000,"capital":true},{"name":"Cairo","country":"EGY","lat":30.0519,"lon":31.248,"pop":11893000,"capital":true},{"name":"Beijing","country":"CHN","lat":39.9017,"lon":116.3942,"pop":11106000,"capital":true},{"name":"Manila","country":"PHL","lat":14.6061,"lon":120.9803,"pop":11100000,"capital":true},{"name":"Moscow","country":"RUS","lat":55.7541,"lon":37.6136,"pop":10452000,"capital":true},{"name":"Paris","country":"FRA","lat":48.8581,"lon":2.353,"pop":9904000,"capital":true},{"name":"Seoul","country":"KOR","lat":37.5683,"lon":126.9978,"pop":9796000,"capital":true},{"name":"Lagos","country":"NGA","lat":6.4452,"lon":3.3896,"pop":9466000,"capital":true},{"name":"Jakarta","country":"IDN","lat":-6.1725,"lon":106.8275,"pop":9125000,"capital":true},{"name":"London","country":"GBR","lat":51.5019,"lon":-0.1187,"pop":8567000,"capital":true},{"name":"Lima","country":"PER","lat":-12.0461,"lon":-77.052,"pop":8012000,"capital":true},{"name":"Tehran","country":"IRN","lat":35.6739,"lon":51.4224,"pop":7873000,"capital":true},{"name":"Kinshasa","country":"COD","lat":-4.3278,"lon":15.313,"pop":7843000,"capital":true},{"name":"Bogota","country":"COL","lat":4.5984,"lon":-74.0853,"pop":7772000,"capital":true},{"name":"Taipei","country":"TWN","lat":25.0358,"lon":121.5683,"pop":6900273,"capital":true},{"name":"Bangkok","country":"THA","lat":13.7519,"lon":100.5147,"pop":6704000,"capital":true},{"name":"Santiago","country":"CHL","lat":-33.4402,"lon":-70.6505,"pop":5720000,"capital":true},{"name":"Madrid","country":"ESP","lat":40.402,"lon":-3.6853,"pop":5567000,"capital":true},{"name":"Singapore","country":"SGP","lat":1.295,"lon":103.8539,"pop":5183700,"capital":true},{"name":"Luanda","country":"AGO","lat":-8.8363,"lon":13.2325,"pop":5172900,"capital":true},{"name":"Baghdad","country":"IRQ","lat":33.3406,"lon":44.3919,"pop":5054000,"capital":true},{"name":"Khartoum","country":"SDN","lat":15.59,"lon":32.5322,"pop":4754000,"capital":true},{"name":"Riyadh","country":"SAU","lat":24.6345,"lon":46.7205,"pop":4465000,"capital":true},{"name":"Hanoi","country":"VNM","lat":21.0353,"lon":105.8481,"pop":4378000,"capital":true},{"name":"Washington,  D.C.","country":"USA","lat":38.9015,"lon":-77.0114,"pop":4338000,"capital":true},{"name":"Yangon","country":"MMR","lat":16.7853,"lon":96.1647,"pop":4088000,"capital":true},{"name":"Abidjan","country":"CIV","lat":5.3231,"lon":-4.0202,"pop":3802000,"capital":true},{"name":"Bras\u00edlia","country":"BRA","lat":-15.7814,"lon":-47.918,"pop":3716996,"capital":true},{"name":"Ankara","country":"TUR","lat":39.9292,"lon":32.8624,"pop":3716000,"capital":true},{"name":"Johannesburg","country":"ZAF","lat":-26.1681,"lon":28.0281,"pop":3435000,"capital":true},{"name":"Berlin","country":"DEU","lat":52.5238,"lon":13.3996,"pop":3406000,"capital":true},{"name":"Algiers","country":"DZA","lat":36.765,"lon":3.0486,"pop":3354000,"capital":true},{"name":"Rome","country":"ITA","lat":41.8979,"lon":12.4813,"pop":3339000,"capital":true},{"name":"Pyongyang","country":"PRK","lat":39.0214,"lon":125.7527,"pop":3300000,"capital":true},{"name":"Kabul","country":"AFG","lat":34.5186,"lon":69.1813,"pop":3277000,"capital":true},{"name":"Athens","country":"GRC","lat":37.9853,"lon":23.7314,"pop":3242000,"capital":true},{"name":"Cape Town","country":"ZAF","lat":-33.9181,"lon":18.433,"pop":3215000,"capital":true},{"name":"Tel Aviv","country":"ISR","lat":32.0819,"lon":34.7681,"pop":3112000,"capital":true},{"name":"Addis Ababa","country":"ETH","lat":9.0353,"lon":38.6981,"pop":3100000,"capital":true},{"name":"Nairobi","country":"KEN","lat":-1.2814,"lon":36.8147,"pop":3010000,"capital":true},{"name":"Caracas","country":"VEN","lat":10.5029,"lon":-66.919,"pop":2985000,"capital":true},{"name":"Dar es Salaam","country":"TZA","lat":-6.7981,"lon":39.2664,"pop":2930000,"capital":true},{"name":"Lisbon","country":"PRT","lat":38.7247,"lon":-9.1468,"pop":2812000,"capital":true},{"name":"Kyiv","country":"UKR","lat":50.4353,"lon":30.5147,"pop":2709000,"capital":true},{"name":"Dakar","country":"SEN","lat":14.7178,"lon":-17.4751,"pop":2604000,"capital":true},{"name":"Damascus","country":"SYR","lat":33.502,"lon":36.2981,"pop":2466000,"capital":true},{"name":"Tunis","country":"TUN","lat":36.8028,"lon":10.1797,"pop":2412500,"capital":true},{"name":"Vienna","country":"AUT","lat":48.202,"lon":16.3647,"pop":2400000,"capital":true},{"name":"Tripoli","country":"LBY","lat":32.8925,"lon":13.18,"pop":2189000,"capital":true},{"name":"Tashkent","country":"UZB","lat":41.3038,"lon":69.2688,"pop":2184000,"capital":true},{"name":"Havana","country":"CUB","lat":23.1339,"lon":-82.3661,"pop":2174000,"capital":true},{"name":"Santo Domingo","country":"DOM","lat":18.4707,"lon":-69.9297,"pop":2154000,"capital":true},{"name":"Baku","country":"AZE","lat":40.3972,"lon":49.8603,"pop":2122300,"capital":true},{"name":"Accra","country":"GHA","lat":5.552,"lon":-0.2187,"pop":2121000,"capital":true},{"name":"Kuwait City","country":"KWT","lat":29.3717,"lon":47.9764,"pop":2063000,"capital":true},{"name":"Sanaa","country":"YEM","lat":15.3567,"lon":44.2046,"pop":2008000,"capital":true},{"name":"Port-au-Prince","country":"HTI","lat":18.543,"lon":-72.338,"pop":1998000,"capital":true},{"name":"Bucharest","country":"ROU","lat":44.4353,"lon":26.098,"pop":1942000,"capital":true},{"name":"Asunci\u00f3n","country":"PRY","lat":-25.2907,"lon":-57.6258,"pop":1870000,"capital":true},{"name":"Beirut","country":"LBN","lat":33.8739,"lon":35.5078,"pop":1846000,"capital":true},{"name":"Kyoto","country":"JPN","lat":35.0319,"lon":135.7481,"pop":1805000,"capital":true},{"name":"Minsk","country":"BLR","lat":53.9019,"lon":27.5647,"pop":1805000,"capital":true},{"name":"Brussels","country":"BEL","lat":50.8353,"lon":4.3314,"pop":1743000,"capital":true},{"name":"Warsaw","country":"POL","lat":52.2309,"lon":21.0053,"pop":1707000,"capital":true},{"name":"Rabat","country":"MAR","lat":34.0253,"lon":-6.8364,"pop":1705000,"capital":true},{"name":"Quito","country":"ECU","lat":-0.213,"lon":-78.502,"pop":1701000,"capital":true},{"name":"Antananarivo","country":"MDG","lat":-18.9147,"lon":47.5147,"pop":1697000,"capital":true},{"name":"Budapest","country":"HUN","lat":47.502,"lon":19.0814,"pop":1679000,"capital":true},{"name":"Yaound\u00e9","country":"CMR","lat":3.8686,"lon":11.5147,"pop":1611000,"capital":true},{"name":"La Paz","country":"BOL","lat":-16.496,"lon":-68.1519,"pop":1590000,"capital":true},{"name":"Abuja","country":"NGA","lat":9.0546,"lon":7.4895,"pop":1576000,"capital":true},{"name":"Harare","country":"ZWE","lat":-17.8158,"lon":31.0428,"pop":1572000,"capital":true},{"name":"Montevideo","country":"URY","lat":-34.9054,"lon":-56.1868,"pop":1513000,"capital":true},{"name":"Bamako","country":"MLI","lat":12.652,"lon":-8.002,"pop":1494000,"capital":true},{"name":"Conakry","country":"GIN","lat":9.5335,"lon":-13.6822,"pop":1494000,"capital":true},{"name":"Phnom Penh","country":"KHM","lat":11.552,"lon":104.9147,"pop":1466000,"capital":true},{"name":"Lom\u00e9","country":"TGO","lat":6.1339,"lon":1.2208,"pop":1452000,"capital":true},{"name":"Doha","country":"QAT","lat":25.2866,"lon":51.533,"pop":1450000,"capital":true},{"name":"Kuala Lumpur","country":"MYS","lat":3.1398,"lon":101.6887,"pop":1448000,"capital":true},{"name":"Maputo","country":"MOZ","lat":-25.9533,"lon":32.5872,"pop":1446000,"capital":true},{"name":"San Salvador","country":"SLV","lat":13.7033,"lon":-89.2156,"pop":1433000,"capital":true},{"name":"Kampala","country":"UGA","lat":0.3186,"lon":32.5814,"pop":1420000,"capital":true},{"name":"The Hague","country":"NLD","lat":52.08,"lon":4.27,"pop":1406000,"capital":true},{"name":"Brazzaville","country":"COG","lat":-4.2572,"lon":15.2827,"pop":1355000,"capital":true},{"name":"Pretoria","country":"ZAF","lat":-25.705,"lon":28.2275,"pop":1338000,"capital":true},{"name":"Lusaka","country":"ZMB","lat":-15.4147,"lon":28.2814,"pop":1328000,"capital":true},{"name":"San Jos\u00e9","country":"CRI","lat":9.9304,"lon":-84.0788,"pop":1284000,"capital":true},{"name":"Panama City","country":"PAN","lat":8.97,"lon":-79.535,"pop":1281000,"capital":true},{"name":"Stockholm","country":"SWE","lat":59.3241,"lon":18.0663,"pop":1264000,"capital":true},{"name":"Sofia","country":"BGR","lat":42.6853,"lon":23.3147,"pop":1185000,"capital":true},{"name":"Prague","country":"CZE","lat":50.087,"lon":14.4229,"pop":1162000,"capital":true},{"name":"Ouagadougou","country":"BFA","lat":12.3723,"lon":-1.5267,"pop":1149000,"capital":true},{"name":"Ottawa","country":"CAN","lat":45.4186,"lon":-75.702,"pop":1145000,"capital":true},{"name":"Helsinki","country":"FIN","lat":60.1638,"lon":24.9325,"pop":1115000,"capital":true},{"name":"Yerevan","country":"ARM","lat":40.1831,"lon":44.5116,"pop":1102000,"capital":true},{"name":"Mogadishu","country":"SOM","lat":2.0686,"lon":45.3647,"pop":1100000,"capital":true},{"name":"Tbilisi","country":"GEO","lat":41.727,"lon":44.7888,"pop":1100000,"capital":true},{"name":"Belgrade","country":"SRB","lat":44.8206,"lon":20.466,"pop":1099000,"capital":true},{"name":"Dushanbe","country":"TJK","lat":38.56,"lon":68.7739,"pop":1086244,"capital":true},{"name":"K\u00f8benhavn","country":"DNK","lat":55.6805,"lon":12.5615,"pop":1085000,"capital":true},{"name":"Amman","country":"JOR","lat":31.952,"lon":35.9314,"pop":1060000,"capital":true},{"name":"Dublin","country":"IRL","lat":53.3467,"lon":-6.257,"pop":1059000,"capital":true},{"name":"Monrovia","country":"LBR","lat":6.3146,"lon":-10.7997,"pop":1041000,"capital":true},{"name":"Amsterdam","country":"NLD","lat":52.3519,"lon":4.9147,"pop":1031000,"capital":true},{"name":"Jerusalem","country":"ISR","lat":31.7784,"lon":35.2066,"pop":1029300,"capital":true},{"name":"Guatemala City","country":"GTM","lat":14.6231,"lon":-90.5289,"pop":1024000,"capital":true},{"name":"N'Djamena","country":"TCD","lat":12.115,"lon":15.0472,"pop":989000,"capital":true},{"name":"Tegucigalpa","country":"HND","lat":14.104,"lon":-87.2195,"pop":946000,"capital":true},{"name":"Kingston","country":"JAM","lat":17.9771,"lon":-76.7674,"pop":937700,"capital":true},{"name":"Naypyidaw","country":"MMR","lat":19.7685,"lon":96.1167,"pop":930000,"capital":true},{"name":"Djibouti","country":"DJI","lat":11.595,"lon":43.148,"pop":923000,"capital":true},{"name":"Managua","country":"NIC","lat":12.155,"lon":-86.2704,"pop":920000,"capital":true},{"name":"Niamey","country":"NER","lat":13.5187,"lon":2.1147,"pop":915000,"capital":true},{"name":"Tirana","country":"ALB","lat":41.3275,"lon":19.8189,"pop":895350,"capital":true},{"name":"Kathmandu","country":"NPL","lat":27.7186,"lon":85.3147,"pop":895000,"capital":true},{"name":"Ulaanbaatar","country":"MNG","lat":47.9186,"lon":106.9147,"pop":885000,"capital":true},{"name":"Kigali","country":"RWA","lat":-1.9516,"lon":30.0586,"pop":860000,"capital":true},{"name":"Valpara\u00edso","country":"CHL","lat":-33.0477,"lon":-71.617,"pop":854000,"capital":true},{"name":"Bishkek","country":"KGZ","lat":42.875,"lon":74.5833,"pop":837000,"capital":true},{"name":"Oslo","country":"NOR","lat":59.9186,"lon":10.748,"pop":835000,"capital":true},{"name":"Bangui","country":"CAF","lat":4.3666,"lon":18.5583,"pop":831925,"capital":true},{"name":"Freetown","country":"SLE","lat":8.472,"lon":-13.2362,"pop":827000,"capital":true},{"name":"Islamabad","country":"PAK","lat":33.6894,"lon":73.0806,"pop":780000,"capital":true},{"name":"Cotonou","country":"BEN","lat":6.363,"lon":2.4044,"pop":762000,"capital":true},{"name":"Vientiane","country":"LAO","lat":17.9667,"lon":102.6,"pop":754000,"capital":true},{"name":"Riga","country":"LVA","lat":56.95,"lon":24.1,"pop":742572,"capital":true},{"name":"Nouakchott","country":"MRT","lat":18.0864,"lon":-15.9753,"pop":742144,"capital":true},{"name":"Muscat","country":"OMN","lat":23.5852,"lon":58.3783,"pop":734697,"capital":true},{"name":"Ashgabat","country":"TKM","lat":37.95,"lon":58.3833,"pop":727700,"capital":true},{"name":"Zagreb","country":"HRV","lat":45.8,"lon":16.0,"pop":722526,"capital":true},{"name":"Sarajevo","country":"BIH","lat":43.85,"lon":18.383,"pop":696731,"capital":true},{"name":"Chi\u0219in\u0103u","country":"MDA","lat":47.005,"lon":28.8577,"pop":688134,"capital":true},{"name":"Lilongwe","country":"MWI","lat":-13.9833,"lon":33.7833,"pop":646750,"capital":true},{"name":"Asmara","country":"ERI","lat":15.3333,"lon":38.9333,"pop":620802,"capital":true},{"name":"Abu Dhabi","country":"ARE","lat":24.4667,"lon":54.3666,"pop":603492,"capital":true},{"name":"Port Louis","country":"MUS","lat":-20.1666,"lon":57.5,"pop":595491,"capital":true},{"name":"Libreville","country":"GAB","lat":0.3854,"lon":9.458,"pop":578156,"capital":true},{"name":"Manama","country":"BHR","lat":26.2361,"lon":50.5831,"pop":563920,"capital":true},{"name":"Vilnius","country":"LTU","lat":54.6834,"lon":25.3166,"pop":542366,"capital":true},{"name":"Skopje","country":"MKD","lat":42.0,"lon":21.4335,"pop":494087,"capital":true},{"name":"Hargeisa","country":"SOL","lat":9.56,"lon":44.0653,"pop":477876,"capital":true},{"name":"Pristina","country":"KOS","lat":42.6667,"lon":21.166,"pop":465186,"capital":true},{"name":"Bloemfontein","country":"ZAF","lat":-29.12,"lon":26.2299,"pop":463064,"capital":true},{"name":"Baguio","country":"PHL","lat":16.43,"lon":120.5699,"pop":447824,"capital":true},{"name":"Bratislava","country":"SVK","lat":48.15,"lon":17.117,"pop":423737,"capital":true},{"name":"Bissau","country":"GNB","lat":11.865,"lon":-15.5984,"pop":403339,"capital":true},{"name":"Tallinn","country":"EST","lat":59.4339,"lon":24.728,"pop":394024,"capital":true},{"name":"Wellington","country":"NZL","lat":-41.2921,"lon":174.7772,"pop":393400,"capital":true},{"name":"Valletta","country":"MLT","lat":35.8997,"lon":14.5147,"pop":368250,"capital":true},{"name":"Maseru","country":"LSO","lat":-29.3167,"lon":27.4833,"pop":361324,"capital":true},{"name":"Nur-Sultan","country":"KAZ","lat":51.1811,"lon":71.4278,"pop":345604,"capital":true},{"name":"Bujumbura","country":"BDI","lat":-3.3761,"lon":29.36,"pop":331700,"capital":true},{"name":"Canberra","country":"AUS","lat":-35.283,"lon":149.129,"pop":327700,"capital":true},{"name":"New Delhi","country":"IND","lat":28.6,"lon":77.2,"pop":317797,"capital":true},{"name":"Ljubljana","country":"SVN","lat":46.0553,"lon":14.515,"pop":314807,"capital":true},{"name":"Porto-Novo","country":"BEN","lat":6.4833,"lon":2.6166,"pop":300000,"capital":true},{"name":"Bandar Seri Begawan","country":"BRN","lat":4.8833,"lon":114.9333,"pop":296500,"capital":true},{"name":"Port-of-Spain","country":"TTO","lat":10.652,"lon":-61.517,"pop":294934,"capital":true},{"name":"Port Moresby","country":"PNG","lat":-9.4647,"lon":147.1925,"pop":283733,"capital":true},{"name":"Bern","country":"CHE","lat":46.9167,"lon":7.467,"pop":275329,"capital":true},{"name":"Windhoek","country":"NAM","lat":-22.57,"lon":17.0835,"pop":268132,"capital":true},{"name":"Georgetown","country":"GUY","lat":6.802,"lon":-58.167,"pop":264350,"capital":true},{"name":"Paramaribo","country":"SUR","lat":5.835,"lon":-55.167,"pop":254169,"capital":true},{"name":"Dili","country":"TLS","lat":-8.5594,"lon":125.5795,"pop":234331,"capital":true},{"name":"Nassau","country":"BHS","lat":25.0834,"lon":-77.35,"pop":227940,"capital":true},{"name":"Sucre","country":"BOL","lat":-19.041,"lon":-65.2595,"pop":224838,"capital":true},{"name":"Nicosia","country":"CYP","lat":35.1667,"lon":33.3666,"pop":224300,"capital":true},{"name":"Dodoma","country":"TZA","lat":-6.1833,"lon":35.75,"pop":218269,"capital":true},{"name":"Colombo","country":"LKA","lat":6.932,"lon":79.8578,"pop":217000,"capital":true},{"name":"Gaborone","country":"BWA","lat":-24.6463,"lon":25.9119,"pop":208411,"capital":true},{"name":"Yamoussoukro","country":"CIV","lat":6.8184,"lon":-5.2755,"pop":206499,"capital":true},{"name":"Bridgetown","country":"BRB","lat":13.102,"lon":-59.6165,"pop":191152,"capital":true},{"name":"Laayoune","country":"MAR","lat":27.15,"lon":-13.2,"pop":188084,"capital":true},{"name":"Suva","country":"FJI","lat":-18.133,"lon":178.4417,"pop":175399,"capital":true},{"name":"Reykjav\u00edk","country":"ISL","lat":64.1435,"lon":-21.9365,"pop":166212,"capital":true},{"name":"Malabo","country":"GNQ","lat":3.75,"lon":8.7833,"pop":155963,"capital":true},{"name":"Podgorica","country":"MNE","lat":42.466,"lon":19.2663,"pop":145850,"capital":true},{"name":"Moroni","country":"COM","lat":-11.7042,"lon":43.2402,"pop":128698,"capital":true},{"name":"Sri Jayawardenepura Kotte","country":"LKA","lat":6.9,"lon":79.95,"pop":115826,"capital":true},{"name":"Praia","country":"CPV","lat":14.9167,"lon":-23.5167,"pop":113364,"capital":true},{"name":"Mal\u00e9","country":"MDV","lat":4.172,"lon":73.5089,"pop":112927,"capital":true},{"name":"Juba","country":"SSD","lat":4.83,"lon":31.58,"pop":111975,"capital":true},{"name":"Luxembourg","country":"LUX","lat":49.6117,"lon":6.13,"pop":107260,"capital":true},{"name":"Thimphu","country":"BTN","lat":27.473,"lon":89.639,"pop":98676,"capital":true},{"name":"Mbabane","country":"SWZ","lat":-26.3167,"lon":31.1333,"pop":90138,"capital":true},{"name":"S\u00e3o Tom\u00e9","country":"STP","lat":0.3375,"lon":6.7297,"pop":88219,"capital":true},{"name":"Honiara","country":"SLB","lat":-9.438,"lon":159.9498,"pop":76328,"capital":true},{"name":"Putrajaya","country":"MYS","lat":2.9325,"lon":101.695,"pop":67964,"capital":true},{"name":"Apia","country":"WSM","lat":-13.8357,"lon":-171.7686,"pop":61916,"capital":true},{"name":"Andorra","country":"AND","lat":42.5108,"lon":1.5266,"pop":53998,"capital":true},{"name":"Kingstown","country":"VCT","lat":13.1558,"lon":-61.2202,"pop":49485,"capital":true},{"name":"Port Vila","country":"VUT","lat":-17.7334,"lon":168.3166,"pop":44040,"capital":true},{"name":"Banjul","country":"GMB","lat":13.4539,"lon":-16.5917,"pop":43094,"capital":true},{"name":"Nuku'alofa","country":"TON","lat":-21.1385,"lon":-175.2206,"pop":42620,"capital":true},{"name":"Castries","country":"LCA","lat":14.0079,"lon":-60.9929,"pop":37963,"capital":true},{"name":"Monaco","country":"MCO","lat":43.7396,"lon":7.4069,"pop":36371,"capital":true},{"name":"Vaduz","country":"LIE","lat":47.1337,"lon":9.5167,"pop":36281,"capital":true},{"name":"Saint John's","country":"ATG","lat":17.118,"lon":-61.85,"pop":35499,"capital":true},{"name":"Saint George's","country":"GRD","lat":12.0526,"lon":-61.7416,"pop":33734,"capital":true},{"name":"Victoria","country":"SYC","lat":-4.6166,"lon":55.45,"pop":33576,"capital":true},{"name":"San Marino","country":"SMR","lat":43.9361,"lon":12.4418,"pop":29579,"capital":true},{"name":"Tarawa","country":"KIR","lat":1.3382,"lon":173.0176,"pop":28802,"capital":true},{"name":"Majuro","country":"MHL","lat":7.103,"lon":171.38,"pop":25400,"capital":true},{"name":"Roseau","country":"DMA","lat":15.301,"lon":-61.387,"pop":23336,"capital":true},{"name":"Basseterre","country":"KNA","lat":17.302,"lon":-62.717,"pop":21887,"capital":true},{"name":"Belmopan","country":"BLZ","lat":17.252,"lon":-88.7671,"pop":15220,"capital":true},{"name":"Lobamba","country":"SWZ","lat":-26.4667,"lon":31.2,"pop":9782,"capital":true},{"name":"Melekeok","country":"PLW","lat":7.4874,"lon":134.6265,"pop":7026,"capital":true},{"name":"Funafuti","country":"TUV","lat":-8.5167,"lon":179.2166,"pop":4749,"capital":true},{"name":"Palikir","country":"FSM","lat":6.9166,"lon":158.15,"pop":4645,"capital":true},{"name":"Vatican City","country":"VAT","lat":41.9033,"lon":12.4534,"pop":832,"capital":true},{"name":"Bir Lehlou","country":"SAH","lat":26.1192,"lon":-9.6525,"pop":500,"capital":true},{"name":"New York","country":"USA","lat":40.7216,"lon":-73.9957,"pop":19040000,"capital":false},{"name":"Mumbai","country":"IND","lat":19.0684,"lon":72.8758,"pop":18978000,"capital":false},{"name":"S\u00e3o Paulo","country":"BRA","lat":-23.5567,"lon":-46.627,"pop":18845000,"capital":false},{"name":"Delhi","country":"IND","lat":28.6719,"lon":77.2281,"pop":15926000,"capital":false},{"name":"Shanghai","country":"CHN","lat":31.2184,"lon":121.4346,"pop":14987000,"capital":false},{"name":"Kolkata","country":"IND","lat":22.5696,"lon":88.3691,"pop":14787000,"capital":false},{"name":"Los Angeles","country":"USA","lat":34.0492,"lon":-118.232,"pop":12500000,"capital":false},{"name":"Karachi","country":"PAK","lat":24.8719,"lon":66.9881,"pop":12130000,"capital":false},{"name":"Rio de Janeiro","country":"BRA","lat":-22.9073,"lon":-43.2121,"pop":11748000,"capital":false},{"name":"\u014csaka","country":"JPN","lat":34.6911,"lon":135.5038,"pop":11294000,"capital":false},{"name":"Istanbul","country":"TUR","lat":41.0176,"lon":28.9743,"pop":10061000,"capital":false},{"name":"Chicago","country":"USA","lat":41.848,"lon":-87.6352,"pop":8990000,"capital":false},{"name":"Guangzhou","country":"CHN","lat":23.1247,"lon":113.2618,"pop":8829000,"capital":false},{"name":"Shenzhen","country":"CHN","lat":22.5481,"lon":114.0612,"pop":7581000,"capital":false},{"name":"Wuhan","country":"CHN","lat":30.582,"lon":114.2681,"pop":7243000,"capital":false},{"name":"Hong Kong","country":"HKG","lat":22.3069,"lon":114.1831,"pop":7206000,"capital":false},{"name":"Tianjin","country":"CHN","lat":39.0828,"lon":117.1966,"pop":7180000,"capital":false},{"name":"Chennai","country":"IND","lat":13.0919,"lon":80.2781,"pop":7163000,"capital":false},{"name":"Bengaluru","country":"IND","lat":12.9719,"lon":77.5581,"pop":6787000,"capital":false},{"name":"Lahore","country":"PAK","lat":31.5619,"lon":74.3481,"pop":6577000,"capital":false},{"name":"Miami","country":"USA","lat":25.7896,"lon":-80.2261,"pop":5585000,"capital":false},{"name":"Belo Horizonte","country":"BRA","lat":-19.9131,"lon":-43.9169,"pop":5575000,"capital":false},{"name":"Philadelphia","country":"USA","lat":39.9459,"lon":-75.1798,"pop":5492000,"capital":false},{"name":"Ho Chi Minh City","country":"VNM","lat":10.7621,"lon":106.703,"pop":5314000,"capital":false},{"name":"Toronto","country":"CAN","lat":43.6646,"lon":-79.3895,"pop":5213000,"capital":false},{"name":"Barcelona","country":"ESP","lat":41.3852,"lon":2.1814,"pop":4920000,"capital":false},{"name":"Sydney","country":"AUS","lat":-33.8714,"lon":151.2125,"pop":4630000,"capital":false},{"name":"St.  Petersburg","country":"RUS","lat":59.941,"lon":30.3141,"pop":4553000,"capital":false},{"name":"Chattogram","country":"BGD","lat":22.3319,"lon":91.798,"pop":4529000,"capital":false},{"name":"Guadalajara","country":"MEX","lat":20.672,"lon":-103.332,"pop":4198000,"capital":false},{"name":"Melbourne","country":"AUS","lat":-37.8181,"lon":144.9731,"pop":4170000,"capital":false},{"name":"Alexandria","country":"EGY","lat":31.202,"lon":29.948,"pop":4165000,"capital":false},{"name":"Porto Alegre","country":"BRA","lat":-30.0481,"lon":-51.202,"pop":3917000,"capital":false},{"name":"New Taipei","country":"TWN","lat":25.0128,"lon":121.465,"pop":3893740,"capital":false},{"name":"Monterrey","country":"MEX","lat":25.6719,"lon":-100.3319,"pop":3712000,"capital":false},{"name":"Yokohama","country":"JPN","lat":35.4307,"lon":139.602,"pop":3697894,"capital":false},{"name":"Montr\u00e9al","country":"CAN","lat":45.5019,"lon":-73.5852,"pop":3678000,"capital":false},{"name":"Recife","country":"BRA","lat":-8.0605,"lon":-34.9088,"pop":3651000,"capital":false},{"name":"Busan","country":"KOR","lat":35.097,"lon":129.0081,"pop":3480000,"capital":false},{"name":"Medell\u00edn","country":"COL","lat":6.2769,"lon":-75.577,"pop":3297000,"capital":false},{"name":"Nagoya","country":"JPN","lat":35.1569,"lon":136.913,"pop":3230000,"capital":false},{"name":"Casablanca","country":"MAR","lat":33.6019,"lon":-7.6183,"pop":3181000,"capital":false},{"name":"Kano","country":"NGA","lat":12.0019,"lon":8.5181,"pop":3140000,"capital":false},{"name":"Jeddah","country":"SAU","lat":21.5188,"lon":39.2173,"pop":3012000,"capital":false},{"name":"Benoni","country":"ZAF","lat":-26.1476,"lon":28.328,"pop":2986000,"capital":false},{"name":"Milan","country":"ITA","lat":45.4719,"lon":9.2031,"pop":2945000,"capital":false},{"name":"Stuttgart","country":"DEU","lat":48.78,"lon":9.2,"pop":2944700,"capital":false},{"name":"Frankfurt","country":"DEU","lat":50.1,"lon":8.675,"pop":2895000,"capital":false},{"name":"Surabaya","country":"IDN","lat":-7.2473,"lon":112.7489,"pop":2845000,"capital":false},{"name":"Fukuoka","country":"JPN","lat":33.597,"lon":130.4081,"pop":2792000,"capital":false},{"name":"Kaohsiung","country":"TWN","lat":22.6333,"lon":120.2666,"pop":2769072,"capital":false},{"name":"Quezon City","country":"PHL","lat":14.6504,"lon":121.03,"pop":2761720,"capital":false},{"name":"Katowice","country":"POL","lat":50.2604,"lon":19.02,"pop":2746000,"capital":false},{"name":"Aleppo","country":"SYR","lat":36.2319,"lon":37.1681,"pop":2738000,"capital":false},{"name":"Durban","country":"ZAF","lat":-29.8607,"lon":31.0109,"pop":2729000,"capital":false},{"name":"Giza","country":"EGY","lat":30.01,"lon":31.19,"pop":2681863,"capital":false},{"name":"Taichung","country":"TWN","lat":24.1521,"lon":120.6817,"pop":2629323,"capital":false},{"name":"Ibadan","country":"NGA","lat":7.382,"lon":3.928,"pop":2628000,"capital":false},{"name":"Faisalabad","country":"PAK","lat":31.4119,"lon":73.1081,"pop":2617000,"capital":false},{"name":"\u0130zmir","country":"TUR","lat":38.4381,"lon":27.1498,"pop":2587000,"capital":false},{"name":"Incheon","country":"KOR","lat":37.4781,"lon":126.6403,"pop":2550000,"capital":false},{"name":"Sapporo","country":"JPN","lat":43.0769,"lon":141.3381,"pop":2544000,"capital":false},{"name":"Guayaquil","country":"ECU","lat":-2.2181,"lon":-79.922,"pop":2514000,"capital":false},{"name":"George Town","country":"MYS","lat":5.4136,"lon":100.3294,"pop":2500000,"capital":false},{"name":"San Juan","country":"PRI","lat":18.44,"lon":-66.13,"pop":2478905,"capital":false},{"name":"Mashhad","country":"IRN","lat":36.272,"lon":59.5681,"pop":2469000,"capital":false},{"name":"Daegu","country":"KOR","lat":35.8687,"lon":128.605,"pop":2460000,"capital":false},{"name":"Omdurman","country":"SDN","lat":15.6167,"lon":32.48,"pop":2395159,"capital":false},{"name":"Bandung","country":"IDN","lat":-6.9481,"lon":107.5681,"pop":2394000,"capital":false},{"name":"Bekasi","country":"IDN","lat":-6.2173,"lon":106.9723,"pop":2378211,"capital":false},{"name":"Mannheim","country":"DEU","lat":49.5004,"lon":8.47,"pop":2362000,"capital":false},{"name":"Vancouver","country":"CAN","lat":49.2754,"lon":-123.1236,"pop":2313328,"capital":false},{"name":"Birmingham","country":"GBR","lat":52.4769,"lon":-1.9219,"pop":2285000,"capital":false},{"name":"Cali","country":"COL","lat":3.4019,"lon":-76.5019,"pop":2254000,"capital":false},{"name":"Naples","country":"ITA","lat":40.842,"lon":14.2431,"pop":2250000,"capital":false},{"name":"Manchester","country":"GBR","lat":53.4753,"lon":-2.2487,"pop":2230000,"capital":false},{"name":"Puebla","country":"MEX","lat":19.0326,"lon":-98.2037,"pop":2195000,"capital":false},{"name":"Medan","country":"IDN","lat":3.5819,"lon":98.6481,"pop":2115000,"capital":false},{"name":"Santa Cruz","country":"BOL","lat":-17.752,"lon":-63.2279,"pop":2102998,"capital":false},{"name":"Maracaibo","country":"VEN","lat":10.7319,"lon":-71.6619,"pop":2072000,"capital":false},{"name":"Dammam","country":"SAU","lat":26.4301,"lon":50.0977,"pop":2054710,"capital":false},{"name":"Haiphong","country":"VNM","lat":20.832,"lon":106.6781,"pop":1969000,"capital":false},{"name":"Douala","country":"CMR","lat":4.0624,"lon":9.708,"pop":1906000,"capital":false},{"name":"Tainan","country":"TWN","lat":23.0,"lon":120.2,"pop":1876312,"capital":false},{"name":"Saidu","country":"PAK","lat":34.75,"lon":72.35,"pop":1860310,"capital":false},{"name":"Brisbane","country":"AUS","lat":-27.4531,"lon":153.0331,"pop":1860000,"capital":false},{"name":"Rawalpindi","country":"PAK","lat":33.591,"lon":73.0675,"pop":1858000,"capital":false},{"name":"Barranquilla","country":"COL","lat":10.9619,"lon":-74.8019,"pop":1798000,"capital":false},{"name":"Valencia","country":"VEN","lat":10.2319,"lon":-67.982,"pop":1770000,"capital":false},{"name":"Hamburg","country":"DEU","lat":53.552,"lon":9.9981,"pop":1757000,"capital":false},{"name":"Palembang","country":"IDN","lat":-2.9781,"lon":104.7481,"pop":1749000,"capital":false},{"name":"Essen","country":"DEU","lat":51.45,"lon":7.0166,"pop":1742135,"capital":false},{"name":"Turin","country":"ITA","lat":45.0723,"lon":7.668,"pop":1652000,"capital":false},{"name":"Kumasi","country":"GHA","lat":6.6919,"lon":-1.632,"pop":1646000,"capital":false},{"name":"Zhongli","country":"TWN","lat":24.965,"lon":121.2168,"pop":1632616,"capital":false},{"name":"Isfahan","country":"IRN","lat":32.702,"lon":51.6981,"pop":1628000,"capital":false},{"name":"Tijuana","country":"MEX","lat":32.502,"lon":-117.0819,"pop":1553000,"capital":false},{"name":"Khulna","country":"BGD","lat":22.8419,"lon":89.5581,"pop":1553000,"capital":false},{"name":"Santiago","country":"DOM","lat":19.5,"lon":-70.67,"pop":1550753,"capital":false},{"name":"Perth","country":"AUS","lat":-31.9531,"lon":115.8381,"pop":1532000,"capital":false},{"name":"Toluca","country":"MEX","lat":19.2893,"lon":-99.6532,"pop":1531000,"capital":false},{"name":"Leeds","country":"GBR","lat":53.79,"lon":-1.5513,"pop":1529000,"capital":false},{"name":"Florence","country":"ITA","lat":43.78,"lon":11.25,"pop":1500000,"capital":false},{"name":"Bursa","country":"TUR","lat":40.2019,"lon":29.0681,"pop":1492000,"capital":false},{"name":"Daejeon","country":"KOR","lat":36.3375,"lon":127.4231,"pop":1468000,"capital":false},{"name":"Kharkiv","country":"UKR","lat":50.0019,"lon":36.2481,"pop":1461000,"capital":false},{"name":"C\u00f3rdoba","country":"ARG","lat":-31.398,"lon":-64.1842,"pop":1452000,"capital":false},{"name":"Kaduna","country":"NGA","lat":10.522,"lon":7.4381,"pop":1442000,"capital":false},{"name":"Gwangju","country":"KOR","lat":35.1729,"lon":126.9085,"pop":1440000,"capital":false},{"name":"Karaj","country":"IRN","lat":35.8023,"lon":50.9681,"pop":1423000,"capital":false},{"name":"Lyon","country":"FRA","lat":45.772,"lon":4.8281,"pop":1423000,"capital":false},{"name":"Tabriz","country":"IRN","lat":38.0882,"lon":46.2993,"pop":1413000,"capital":false},{"name":"Davao","country":"PHL","lat":7.112,"lon":125.6281,"pop":1402000,"capital":false},{"name":"Marseille","country":"FRA","lat":43.2919,"lon":5.3731,"pop":1400000,"capital":false},{"name":"Novosibirsk","country":"RUS","lat":55.0319,"lon":82.9581,"pop":1389000,"capital":false},{"name":"Makkah","country":"SAU","lat":21.432,"lon":39.8181,"pop":1385000,"capital":false},{"name":"Dubai","country":"ARE","lat":25.2149,"lon":55.2869,"pop":1379000,"capital":false},{"name":"Auckland","country":"NZL","lat":-36.8481,"lon":174.763,"pop":1377200,"capital":false},{"name":"Lubumbashi","country":"COD","lat":-11.6781,"lon":27.4781,"pop":1352000,"capital":false},{"name":"Porto","country":"PRT","lat":41.152,"lon":-8.6219,"pop":1337000,"capital":false},{"name":"Mosul","country":"IRQ","lat":36.3469,"lon":43.1431,"pop":1316000,"capital":false},{"name":"Yekaterinburg","country":"RUS","lat":56.852,"lon":60.598,"pop":1313000,"capital":false},{"name":"Mandalay","country":"MMR","lat":21.9719,"lon":96.0831,"pop":1300000,"capital":false},{"name":"Mbuji-Mayi","country":"COD","lat":-6.1481,"lon":23.5981,"pop":1295000,"capital":false},{"name":"Adana","country":"TUR","lat":36.9969,"lon":35.3181,"pop":1293000,"capital":false},{"name":"Sheffield","country":"GBR","lat":53.3667,"lon":-1.5,"pop":1292900,"capital":false},{"name":"Nizhny Novgorod","country":"RUS","lat":56.335,"lon":43.9981,"pop":1278000,"capital":false},{"name":"Geneva","country":"CHE","lat":46.21,"lon":6.14,"pop":1240000,"capital":false},{"name":"Shiraz","country":"IRN","lat":29.6319,"lon":52.5681,"pop":1240000,"capital":false},{"name":"Seville","country":"ESP","lat":37.405,"lon":-5.98,"pop":1212045,"capital":false},{"name":"Almaty","country":"KAZ","lat":43.3269,"lon":76.9131,"pop":1209000,"capital":false},{"name":"Rosario","country":"ARG","lat":-32.9492,"lon":-60.6683,"pop":1203000,"capital":false},{"name":"Benin City","country":"NGA","lat":6.3424,"lon":5.6181,"pop":1190000,"capital":false},{"name":"Banghazi","country":"LBY","lat":32.1187,"lon":20.0648,"pop":1180000,"capital":false},{"name":"Glasgow","country":"GBR","lat":55.8623,"lon":-4.2391,"pop":1160000,"capital":false},{"name":"Adelaide","country":"AUS","lat":-34.933,"lon":138.5981,"pop":1145000,"capital":false},{"name":"Samara","country":"RUS","lat":53.197,"lon":50.1493,"pop":1137000,"capital":false},{"name":"Nampo","country":"PRK","lat":38.7689,"lon":125.4505,"pop":1127000,"capital":false},{"name":"Cagayan de Oro","country":"PHL","lat":8.4508,"lon":124.6853,"pop":1121561,"capital":false},{"name":"Can Tho","country":"VNM","lat":10.05,"lon":105.77,"pop":1121000,"capital":false},{"name":"Barquisimeto","country":"VEN","lat":10.0519,"lon":-69.3019,"pop":1116000,"capital":false},{"name":"Calgary","country":"CAN","lat":51.0849,"lon":-114.0819,"pop":1110000,"capital":false},{"name":"Z\u00fcrich","country":"CHE","lat":47.3819,"lon":8.5481,"pop":1108000,"capital":false},{"name":"Sharjah","country":"ARE","lat":25.3714,"lon":55.4065,"pop":1103027,"capital":false},{"name":"Huambo","country":"AGO","lat":-12.748,"lon":15.7581,"pop":1100000,"capital":false},{"name":"Ikare","country":"NGA","lat":7.5304,"lon":5.76,"pop":1099931,"capital":false},{"name":"Vereeniging","country":"ZAF","lat":-26.6477,"lon":27.958,"pop":1074000,"capital":false},{"name":"Edmonton","country":"CAN","lat":53.552,"lon":-113.5019,"pop":1058000,"capital":false},{"name":"Dnipro","country":"UKR","lat":48.4819,"lon":34.9981,"pop":1050000,"capital":false},{"name":"Gaziantep","country":"TUR","lat":37.0769,"lon":37.383,"pop":1044000,"capital":false},{"name":"Lille","country":"FRA","lat":50.6519,"lon":3.0781,"pop":1044000,"capital":false},{"name":"Port Elizabeth","country":"ZAF","lat":-33.9681,"lon":25.5981,"pop":1021000,"capital":false},{"name":"Haifa","country":"ISR","lat":32.8224,"lon":34.9781,"pop":1011000,"capital":false},{"name":"Medina","country":"SAU","lat":24.5019,"lon":39.5781,"pop":1010000,"capital":false},{"name":"Bucaramanga","country":"COL","lat":7.132,"lon":-73.1278,"pop":1009000,"capital":false},{"name":"Maracay","country":"VEN","lat":10.2488,"lon":-67.5978,"pop":1007000,"capital":false},{"name":"Homs","country":"SYR","lat":34.7319,"lon":36.7181,"pop":1005000,"capital":false},{"name":"Rotterdam","country":"NLD","lat":51.9219,"lon":4.478,"pop":1005000,"capital":false},{"name":"Fez","country":"MAR","lat":34.0565,"lon":-5.0023,"pop":1002000,"capital":false},{"name":"Da Nang","country":"VNM","lat":16.06,"lon":108.25,"pop":1000000,"capital":false},{"name":"Aden","country":"YEM","lat":12.7797,"lon":45.0095,"pop":1000000,"capital":false},{"name":"Cochabamba","country":"BOL","lat":-17.41,"lon":-66.17,"pop":1000000,"capital":false},{"name":"Antwerpen","country":"BEL","lat":51.2223,"lon":4.4131,"pop":920000,"capital":false},{"name":"Az Zarqa","country":"JOR","lat":32.07,"lon":36.1,"pop":894691,"capital":false},{"name":"Concepci\u00f3n","country":"CHL","lat":-36.83,"lon":-73.05,"pop":889725,"capital":false},{"name":"Mombasa","country":"KEN","lat":-4.0381,"lon":39.688,"pop":882000,"capital":false},{"name":"Callao","country":"PER","lat":-12.07,"lon":-77.135,"pop":876877,"capital":false},{"name":"Thessaloniki","country":"GRC","lat":40.6981,"lon":22.8831,"pop":828000,"capital":false},{"name":"Oran","country":"DZA","lat":35.7119,"lon":-0.6219,"pop":798000,"capital":false},{"name":"Fargona","country":"UZB","lat":40.39,"lon":71.78,"pop":750000,"capital":false},{"name":"Moshi","country":"TZA","lat":-3.3396,"lon":37.34,"pop":721018,"capital":false},{"name":"Kandahar","country":"AFG","lat":31.61,"lon":65.6949,"pop":715542,"capital":false},{"name":"Bulawayo","country":"ZWE","lat":-20.17,"lon":28.58,"pop":699385,"capital":false},{"name":"San Pedro Sula","country":"HND","lat":15.5,"lon":-88.03,"pop":680091,"capital":false},{"name":"Pointe-Noire","country":"COG","lat":-4.77,"lon":11.88,"pop":659084,"capital":false},{"name":"Blantyre","country":"MWI","lat":-15.79,"lon":34.9899,"pop":584877,"capital":false},{"name":"Quetzaltenango","country":"GTM","lat":14.83,"lon":-91.52,"pop":575263,"capital":false},{"name":"Macau","country":"MAC","lat":22.1891,"lon":113.5444,"pop":568700,"capital":false},{"name":"Bouak\u00e9","country":"CIV","lat":7.69,"lon":-5.03,"pop":567481,"capital":false},{"name":"Santiago de Cuba","country":"CUB","lat":20.025,"lon":-75.8213,"pop":555865,"capital":false},{"name":"Matola","country":"MOZ","lat":-25.9696,"lon":32.46,"pop":543907,"capital":false},{"name":"G\u00f6teborg","country":"SWE","lat":57.7091,"lon":11.9786,"pop":537797,"capital":false},{"name":"\u1e6car\u0101bulus","country":"LBN","lat":34.4383,"lon":35.8317,"pop":530000,"capital":false},{"name":"Gaza City","country":"PSX","lat":31.53,"lon":34.445,"pop":505700,"capital":false},{"name":"San Lorenzo","country":"PRY","lat":-25.34,"lon":-57.52,"pop":500000,"capital":false}]